{
  "AL": {
    "name": "Alabama",
    "latitude": 32.3182,
    "longitude": -86.9023
  },
  "AK": {
    "name": "Alaska",
    "latitude": 66.1605,
    "longitude": -153.3691
  },
  "AZ": {
    "name": "Arizona",
    "latitude": 34.0489,
    "longitude": -111.0937
  },
  "AR": {
    "name": "Arkansas",
    "latitude": 34.7998,
    "longitude": -92.2445
  },
  "CA": {
    "name": "California",
    "latitude": 36.7783,
    "longitude": -119.4179
  },
  "CO": {
    "name": "Colorado",
    "latitude": 39.5501,
    "longitude": -105.7821
  },
  "CT": {
    "name": "Connecticut",
    "latitude": 41.6032,
    "longitude": -73.0877
  },
  "DE": {
    "name": "Delaware",
    "latitude": 38.9108,
    "longitude": -75.5277
  },
  "FL": {
    "name": "Florida",
    "latitude": 27.6648,
    "longitude": -81.5158
  },
  "GA": {
    "name": "Georgia",
    "latitude": 33.0406,
    "longitude": -83.6431
  },
  "HI": {
    "name": "Hawaii",
    "latitude": 21.0943,
    "longitude": -157.4983
  },
  "ID": {
    "name": "Idaho",
    "latitude": 44.2405,
    "longitude": -114.4788
  },
  "IL": {
    "name": "Illinois",
    "latitude": 40.3495,
    "longitude": -88.9861
  },
  "IN": {
    "name": "Indiana",
    "latitude": 39.8494,
    "longitude": -86.2583
  },
  "IA": {
    "name": "Iowa",
    "latitude": 42.0115,
    "longitude": -93.2105
  },
  "KS": {
    "name": "Kansas",
    "latitude": 38.5266,
    "longitude": -96.7265
  },
  "KY": {
    "name": "Kentucky",
    "latitude": 37.6681,
    "longitude": -84.6701
  },
  "LA": {
    "name": "Louisiana",
    "latitude": 31.1695,
    "longitude": -91.8678
  },
  "ME": {
    "name": "Maine",
    "latitude": 44.6939,
    "longitude": -69.3819
  },
  "MD": {
    "name": "Maryland",
    "latitude": 39.0639,
    "longitude": -76.8021
  },
  "MA": {
    "name": "Massachusetts",
    "latitude": 42.2302,
    "longitude": -71.5301
  },
  "MI": {
    "name": "Michigan",
    "latitude": 43.3266,
    "longitude": -84.5361
  },
  "MN": {
    "name": "Minnesota",
    "latitude": 45.6945,
    "longitude": -93.9002
  },
  "MS": {
    "name": "Mississippi",
    "latitude": 32.7416,
    "longitude": -89.6787
  },
  "MO": {
    "name": "Missouri",
    "latitude": 38.4561,
    "longitude": -92.2884
  },
  "MT": {
    "name": "Montana",
    "latitude": 46.9219,
    "longitude": -110.4544
  },
  "NE": {
    "name": "Nebraska",
    "latitude": 41.1254,
    "longitude": -98.2681
  },
  "NV": {
    "name": "Nevada",
    "latitude": 38.3135,
    "longitude": -117.0554
  },
  "NC": {
    "name": "North Carolina",
    "latitude": 35.6301,
    "longitude": -79.8064
  },
  "ND": {
    "name": "North Dakota",
    "latitude": 47.5362,
    "longitude": -99.793
  },
  "OH": {
    "name": "Ohio",
    "latitude": 40.3888,
    "longitude": -82.7649
  },
  "OK": {
    "name": "Oklahoma",
    "latitude": 35.5653,
    "longitude": -96.9289
  },
  "OR": {
    "name": "Oregon",
    "latitude": 44.572,
    "longitude": -122.0709
  },
  "PA": {
    "name": "Pennsylvania",
    "latitude": 40.5908,
    "longitude": -77.2098
  },
  "RI": {
    "name": "Rhode Island",
    "latitude": 41.6809,
    "longitude": -71.5118
  },
  "SC": {
    "name": "South Carolina",
    "latitude": 33.8569,
    "longitude": -80.945
  },
  "SD": {
    "name": "South Dakota",
    "latitude": 44.2998,
    "longitude": -99.4388
  },
  "TN": {
    "name": "Tennessee",
    "latitude": 35.7478,
    "longitude": -86.6923
  },
  "TX": {
    "name": "Texas",
    "latitude": 31.0545,
    "longitude": -97.5635
  },
  "UT": {
    "name": "Utah",
    "latitude": 40.15,
    "longitude": -111.8624
  },
  "VT": {
    "name": "Vermont",
    "latitude": 44.0459,
    "longitude": -72.7107
  },
  "VA": {
    "name": "Virginia",
    "latitude": 37.7693,
    "longitude": -78.17
  },
  "WA": {
    "name": "Washington",
    "latitude": 47.4009,
    "longitude": -121.4905
  },
  "WV": {
    "name": "West Virginia",
    "latitude": 38.4912,
    "longitude": -80.9545
  },
  "WI": {
    "name": "Wisconsin",
    "latitude": 44.2685,
    "longitude": -89.6165
  },
  "WY": {
    "name": "Wyoming",
    "latitude": 42.756,
    "longitude": -107.3025
  },
  "DC": {
    "name": "District of Columbia",
    "latitude": 38.9072,
    "longitude": -77.0369
  },
  "AS": {
    "name": "American Samoa",
    "latitude": -14.3064,
    "longitude": -170.695
  },
  "GU": {
    "name": "Guam",
    "latitude": 13.4443,
    "longitude": 144.7937
  },
  "MP": {
    "name": "Northern Mariana Islands",
    "latitude": 15.0979,
    "longitude": 145.6739
  },
  "PR": {
    "name": "Puerto Rico",
    "latitude": 18.2208,
    "longitude": -66.5901
  },
  "UM": {
    "name": "United States Minor Outlying Islands",
    "latitude": 19.2823,
    "longitude": 166.647
  },
  "VI": {
    "name": "Virgin Islands, U.S.",
    "latitude": 18.3358,
    "longitude": -64.8963
  }
}
